header: 
  seq: 18652807
  stamp: 
    secs: 1509323782
    nsecs: 881402715
  frame_id: ''
name: ['head_pan', 'right_j0', 'right_j1', 'right_j2', 'right_j3', 'right_j4', 'right_j5', 'right_j6', 'torso_t0']
position: [-0.2940517578125, -0.1606748046875, -0.3100185546875, 3.0422578125, -1.0677685546875, 0.0213720703125, -0.785130859375, -4.7141357421875, 0.0]
velocity: [-0.001, -0.001, -0.001, -0.001, -0.001, -0.001, -0.001, -0.001, 0.0]
effort: [0.008, -0.104, -37.768, 5.3, 10.464, -1.796, 0.504, 0.312, 0.0]
---
header: 
  seq: 18652808
  stamp: 
    secs: 1509323782
    nsecs: 891381858
  frame_id: ''
name: ['head_pan', 'right_j0', 'right_j1', 'right_j2', 'right_j3', 'right_j4', 'right_j5', 'right_j6', 'torso_t0']
position: [-0.2940517578125, -0.1606748046875, -0.3100185546875, 3.0422578125, -1.0677685546875, 0.0213720703125, -0.785130859375, -4.7141357421875, 0.0]
velocity: [-0.001, -0.001, -0.001, -0.001, -0.001, -0.001, -0.001, -0.001, 0.0]
effort: [0.032, -0.156, -37.768, 5.232, 10.372, -1.78, 0.492, 0.284, 0.0]
---
header: 
  seq: 18652809
  stamp: 
    secs: 1509323782
    nsecs: 901379756
  frame_id: ''
name: ['head_pan', 'right_j0', 'right_j1', 'right_j2', 'right_j3', 'right_j4', 'right_j5', 'right_j6', 'torso_t0']
position: [-0.2940517578125, -0.1606748046875, -0.3100185546875, 3.0422578125, -1.0677685546875, 0.0213720703125, -0.785130859375, -4.7141357421875, 0.0]
velocity: [-0.001, -0.001, -0.001, -0.001, -0.001, -0.001, -0.001, -0.001, 0.0]
effort: [0.076, -0.156, -37.82, 5.256, 10.508, -1.796, 0.512, 0.296, 0.0]
---
header: 
  seq: 18652810
  stamp: 
    secs: 1509323782
    nsecs: 911369963
  frame_id: ''
name: ['head_pan', 'right_j0', 'right_j1', 'right_j2', 'right_j3', 'right_j4', 'right_j5', 'right_j6', 'torso_t0']
position: [-0.2940517578125, -0.1606748046875, -0.3100185546875, 3.0422578125, -1.0677685546875, 0.0213720703125, -0.785130859375, -4.7141357421875, 0.0]
velocity: [-0.001, -0.001, -0.001, -0.001, -0.001, -0.001, -0.001, -0.001, 0.0]
effort: [0.02, -0.104, -37.768, 5.144, 10.532, -1.808, 0.488, 0.276, 0.0]
---
header: 
  seq: 18652811
  stamp: 
    secs: 1509323782
    nsecs: 921350747
  frame_id: ''
name: ['head_pan', 'right_j0', 'right_j1', 'right_j2', 'right_j3', 'right_j4', 'right_j5', 'right_j6', 'torso_t0']
position: [-0.2940517578125, -0.1606748046875, -0.3100185546875, 3.0422578125, -1.0677685546875, 0.0213720703125, -0.785130859375, -4.7141357421875, 0.0]
velocity: [-0.001, -0.001, -0.001, -0.001, -0.001, -0.001, -0.001, -0.001, 0.0]
effort: [-0.012, -0.156, -37.82, 5.256, 10.416, -1.788, 0.512, 0.296, 0.0]
---
header: 
  seq: 18652812
  stamp: 
    secs: 1509323782
    nsecs: 931360406
  frame_id: ''
name: ['head_pan', 'right_j0', 'right_j1', 'right_j2', 'right_j3', 'right_j4', 'right_j5', 'right_j6', 'torso_t0']
position: [-0.2940517578125, -0.1606748046875, -0.3100185546875, 3.0422578125, -1.0677685546875, 0.0213720703125, -0.785130859375, -4.7141357421875, 0.0]
velocity: [-0.001, -0.001, -0.001, -0.001, -0.001, -0.001, -0.001, -0.001, 0.0]
effort: [-0.012, -0.156, -37.768, 5.232, 10.464, -1.808, 0.5, 0.276, 0.0]
---
header: 
  seq: 18652813
  stamp: 
    secs: 1509323782
    nsecs: 941367083
  frame_id: ''
name: ['head_pan', 'right_j0', 'right_j1', 'right_j2', 'right_j3', 'right_j4', 'right_j5', 'right_j6', 'torso_t0']
position: [-0.2940517578125, -0.1606748046875, -0.3100185546875, 3.0422578125, -1.0677685546875, 0.0213720703125, -0.785130859375, -4.7141357421875, 0.0]
velocity: [-0.001, -0.001, -0.001, -0.001, -0.001, -0.001, -0.001, -0.001, 0.0]
effort: [-0.044, -0.156, -37.768, 5.364, 10.372, -1.808, 0.5, 0.296, 0.0]
---
header: 
  seq: 18652814
  stamp: 
    secs: 1509323782
    nsecs: 951352509
  frame_id: ''
name: ['head_pan', 'right_j0', 'right_j1', 'right_j2', 'right_j3', 'right_j4', 'right_j5', 'right_j6', 'torso_t0']
position: [-0.2940517578125, -0.1606748046875, -0.3100185546875, 3.0422578125, -1.0677685546875, 0.0213720703125, -0.785130859375, -4.7141357421875, 0.0]
velocity: [-0.001, -0.001, -0.001, -0.001, -0.001, -0.001, -0.001, -0.001, 0.0]
effort: [-0.02, -0.104, -37.82, 5.276, 10.324, -1.78, 0.492, 0.296, 0.0]
---
header: 
  seq: 18652815
  stamp: 
    secs: 1509323782
    nsecs: 961342211
  frame_id: ''
name: ['head_pan', 'right_j0', 'right_j1', 'right_j2', 'right_j3', 'right_j4', 'right_j5', 'right_j6', 'torso_t0']
position: [-0.2940517578125, -0.1606748046875, -0.3100185546875, 3.0422578125, -1.0677685546875, 0.0213720703125, -0.785130859375, -4.7141357421875, 0.0]
velocity: [-0.001, -0.001, -0.001, -0.001, -0.001, -0.001, -0.001, -0.001, 0.0]
effort: [0.008, -0.156, -37.82, 5.188, 10.44, -1.8, 0.504, 0.304, 0.0]
---
header: 
  seq: 18652816
  stamp: 
    secs: 1509323782
    nsecs: 971376822
  frame_id: ''
name: ['head_pan', 'right_j0', 'right_j1', 'right_j2', 'right_j3', 'right_j4', 'right_j5', 'right_j6', 'torso_t0']
position: [-0.2940517578125, -0.1606748046875, -0.3100185546875, 3.0422578125, -1.0677685546875, 0.0213720703125, -0.785130859375, -4.7141357421875, 0.0]
velocity: [-0.001, -0.001, -0.001, -0.001, -0.001, -0.001, -0.001, -0.001, 0.0]
effort: [0.008, -0.104, -37.768, 5.232, 10.532, -1.78, 0.5, 0.272, 0.0]
---
header: 
  seq: 18652817
  stamp: 
    secs: 1509323782
    nsecs: 981364949
  frame_id: ''
name: ['head_pan', 'right_j0', 'right_j1', 'right_j2', 'right_j3', 'right_j4', 'right_j5', 'right_j6', 'torso_t0']
position: [-0.2940517578125, -0.1606748046875, -0.3100185546875, 3.0422578125, -1.0677685546875, 0.0213720703125, -0.785130859375, -4.7141357421875, 0.0]
velocity: [-0.001, -0.001, -0.001, -0.001, -0.001, -0.001, -0.001, -0.001, 0.0]
effort: [0.02, -0.104, -37.768, 5.168, 10.532, -1.78, 0.5, 0.312, 0.0]
---
header: 
  seq: 18652818
  stamp: 
    secs: 1509323782
    nsecs: 991389746
  frame_id: ''
name: ['head_pan', 'right_j0', 'right_j1', 'right_j2', 'right_j3', 'right_j4', 'right_j5', 'right_j6', 'torso_t0']
position: [-0.2940517578125, -0.1606748046875, -0.3100185546875, 3.0422578125, -1.0677685546875, 0.0213720703125, -0.785130859375, -4.7141357421875, 0.0]
velocity: [-0.001, -0.001, -0.001, -0.001, -0.001, -0.001, -0.001, -0.001, 0.0]
effort: [0.052, -0.156, -37.82, 5.276, 10.484, -1.8, 0.504, 0.312, 0.0]
---
header: 
  seq: 18652819
  stamp: 
    secs: 1509323783
    nsecs:   1356540
  frame_id: ''
name: ['head_pan', 'right_j0', 'right_j1', 'right_j2', 'right_j3', 'right_j4', 'right_j5', 'right_j6', 'torso_t0']
position: [-0.2940517578125, -0.1606748046875, -0.3100185546875, 3.0422578125, -1.0677685546875, 0.0213720703125, -0.785130859375, -4.7141357421875, 0.0]
velocity: [-0.001, -0.001, -0.001, -0.001, -0.001, -0.001, -0.001, -0.001, 0.0]
effort: [0.04, -0.156, -37.768, 5.168, 10.464, -1.796, 0.504, 0.292, 0.0]
---
header: 
  seq: 18652820
  stamp: 
    secs: 1509323783
    nsecs:  11400108
  frame_id: ''
name: ['head_pan', 'right_j0', 'right_j1', 'right_j2', 'right_j3', 'right_j4', 'right_j5', 'right_j6', 'torso_t0']
position: [-0.2940517578125, -0.1606748046875, -0.3100185546875, 3.0422578125, -1.0677685546875, 0.0213720703125, -0.785130859375, -4.7141357421875, 0.0]
velocity: [-0.001, -0.001, -0.001, -0.001, -0.001, -0.001, -0.001, -0.001, 0.0]
effort: [0.0, -0.104, -37.82, 5.344, 10.484, -1.8, 0.504, 0.292, 0.0]
---
header: 
  seq: 18652821
  stamp: 
    secs: 1509323783
    nsecs:  21343172
  frame_id: ''
name: ['head_pan', 'right_j0', 'right_j1', 'right_j2', 'right_j3', 'right_j4', 'right_j5', 'right_j6', 'torso_t0']
position: [-0.2940517578125, -0.1606748046875, -0.3100185546875, 3.0422578125, -1.0677685546875, 0.0213720703125, -0.785130859375, -4.7141357421875, 0.0]
velocity: [-0.001, -0.001, -0.001, -0.001, -0.001, -0.001, -0.001, -0.001, 0.0]
effort: [0.008, -0.156, -37.768, 5.3, 10.392, -1.788, 0.492, 0.292, 0.0]
---
header: 
  seq: 18652822
  stamp: 
    secs: 1509323783
    nsecs:  31375358
  frame_id: ''
name: ['head_pan', 'right_j0', 'right_j1', 'right_j2', 'right_j3', 'right_j4', 'right_j5', 'right_j6', 'torso_t0']
position: [-0.2940517578125, -0.1606748046875, -0.3100185546875, 3.0422578125, -1.0677685546875, 0.0213720703125, -0.785130859375, -4.7141357421875, 0.0]
velocity: [-0.001, -0.001, -0.001, -0.001, -0.001, -0.001, -0.001, -0.001, 0.0]
effort: [-0.044, -0.104, -37.82, 5.32, 10.392, -1.788, 0.492, 0.292, 0.0]
---
header: 
  seq: 18652823
  stamp: 
    secs: 1509323783
    nsecs:  41355003
  frame_id: ''
name: ['head_pan', 'right_j0', 'right_j1', 'right_j2', 'right_j3', 'right_j4', 'right_j5', 'right_j6', 'torso_t0']
position: [-0.2940517578125, -0.1606748046875, -0.3100185546875, 3.0422578125, -1.0677685546875, 0.0213720703125, -0.785130859375, -4.7141357421875, 0.0]
velocity: [-0.001, -0.001, -0.001, -0.001, -0.001, -0.001, -0.001, -0.001, 0.0]
effort: [0.0, -0.104, -37.768, 5.232, 10.44, -1.816, 0.504, 0.276, 0.0]
---
header: 
  seq: 18652824
  stamp: 
    secs: 1509323783
    nsecs:  51369397
  frame_id: ''
name: ['head_pan', 'right_j0', 'right_j1', 'right_j2', 'right_j3', 'right_j4', 'right_j5', 'right_j6', 'torso_t0']
position: [-0.2940517578125, -0.1606748046875, -0.3100185546875, 3.0422578125, -1.0677685546875, 0.0213720703125, -0.785130859375, -4.7141357421875, 0.0]
velocity: [-0.001, -0.001, -0.001, -0.001, -0.001, -0.001, -0.001, -0.001, 0.0]
effort: [0.0, -0.156, -37.768, 5.256, 10.44, -1.788, 0.52, 0.264, 0.0]
---
header: 
  seq: 18652825
  stamp: 
    secs: 1509323783
    nsecs:  61401345
  frame_id: ''
name: ['head_pan', 'right_j0', 'right_j1', 'right_j2', 'right_j3', 'right_j4', 'right_j5', 'right_j6', 'torso_t0']
position: [-0.2940517578125, -0.1606748046875, -0.3100185546875, 3.0422578125, -1.0677685546875, 0.0213720703125, -0.785130859375, -4.7141357421875, 0.0]
velocity: [-0.001, -0.001, -0.001, -0.001, -0.001, -0.001, -0.001, -0.001, 0.0]
effort: [0.008, -0.104, -37.82, 5.344, 10.392, -1.796, 0.492, 0.312, 0.0]
---
header: 
  seq: 18652826
  stamp: 
    secs: 1509323783
    nsecs:  71368612
  frame_id: ''
name: ['head_pan', 'right_j0', 'right_j1', 'right_j2', 'right_j3', 'right_j4', 'right_j5', 'right_j6', 'torso_t0']
position: [-0.2940517578125, -0.1606748046875, -0.3100185546875, 3.0422578125, -1.0677685546875, 0.0213720703125, -0.785130859375, -4.7141357421875, 0.0]
velocity: [-0.001, -0.001, -0.001, -0.001, -0.001, -0.001, -0.001, -0.001, 0.0]
effort: [0.02, -0.104, -37.768, 5.276, 10.484, -1.756, 0.504, 0.284, 0.0]
---
header: 
  seq: 18652827
  stamp: 
    secs: 1509323783
    nsecs:  81367669
  frame_id: ''
name: ['head_pan', 'right_j0', 'right_j1', 'right_j2', 'right_j3', 'right_j4', 'right_j5', 'right_j6', 'torso_t0']
position: [-0.2940517578125, -0.1606748046875, -0.3100185546875, 3.0422578125, -1.0677685546875, 0.0213720703125, -0.785130859375, -4.7141357421875, 0.0]
velocity: [-0.001, -0.001, -0.001, -0.001, -0.001, -0.001, -0.001, -0.001, 0.0]
effort: [0.064, -0.156, -37.768, 5.188, 10.324, -1.788, 0.492, 0.284, 0.0]
---
header: 
  seq: 18652828
  stamp: 
    secs: 1509323783
    nsecs:  91387611
  frame_id: ''
name: ['head_pan', 'right_j0', 'right_j1', 'right_j2', 'right_j3', 'right_j4', 'right_j5', 'right_j6', 'torso_t0']
position: [-0.2940517578125, -0.1606748046875, -0.3100185546875, 3.0422578125, -1.0677685546875, 0.0213720703125, -0.785130859375, -4.7141357421875, 0.0]
velocity: [-0.001, -0.001, -0.001, -0.001, -0.001, -0.001, -0.001, -0.001, 0.0]
effort: [0.032, -0.156, -37.768, 5.344, 10.392, -1.78, 0.492, 0.296, 0.0]
---
header: 
  seq: 18652829
  stamp: 
    secs: 1509323783
    nsecs: 101368192
  frame_id: ''
name: ['head_pan', 'right_j0', 'right_j1', 'right_j2', 'right_j3', 'right_j4', 'right_j5', 'right_j6', 'torso_t0']
position: [-0.2940517578125, -0.1606748046875, -0.3100185546875, 3.0422578125, -1.0677685546875, 0.0213720703125, -0.785130859375, -4.7141357421875, 0.0]
velocity: [-0.001, -0.001, -0.001, -0.001, -0.001, -0.001, -0.001, -0.001, 0.0]
effort: [0.02, -0.104, -37.768, 5.3, 10.576, -1.8, 0.512, 0.296, 0.0]
---
header: 
  seq: 18652830
  stamp: 
    secs: 1509323783
    nsecs: 111369614
  frame_id: ''
name: ['head_pan', 'right_j0', 'right_j1', 'right_j2', 'right_j3', 'right_j4', 'right_j5', 'right_j6', 'torso_t0']
position: [-0.2940517578125, -0.1606748046875, -0.3100185546875, 3.0422578125, -1.0677685546875, 0.0213720703125, -0.785130859375, -4.7141357421875, 0.0]
velocity: [-0.001, -0.001, -0.001, -0.001, -0.001, -0.001, -0.001, -0.001, 0.0]
effort: [0.008, -0.104, -37.82, 5.276, 10.464, -1.796, 0.492, 0.284, 0.0]
---
header: 
  seq: 18652831
  stamp: 
    secs: 1509323783
    nsecs: 121356094
  frame_id: ''
name: ['head_pan', 'right_j0', 'right_j1', 'right_j2', 'right_j3', 'right_j4', 'right_j5', 'right_j6', 'torso_t0']
position: [-0.2940517578125, -0.1606748046875, -0.3100185546875, 3.0422578125, -1.0677685546875, 0.0213720703125, -0.785130859375, -4.7141357421875, 0.0]
velocity: [-0.001, -0.001, -0.001, -0.001, -0.001, -0.001, -0.001, -0.001, 0.0]
effort: [-0.056, -0.156, -37.768, 5.256, 10.576, -1.8, 0.524, 0.284, 0.0]
---
header: 
  seq: 18652832
  stamp: 
    secs: 1509323783
    nsecs: 131361339
  frame_id: ''
name: ['head_pan', 'right_j0', 'right_j1', 'right_j2', 'right_j3', 'right_j4', 'right_j5', 'right_j6', 'torso_t0']
position: [-0.2940517578125, -0.1606748046875, -0.3100185546875, 3.0422578125, -1.0677685546875, 0.0213720703125, -0.785130859375, -4.7141357421875, 0.0]
velocity: [-0.001, -0.001, -0.001, -0.001, -0.001, -0.001, -0.001, -0.001, 0.0]
effort: [-0.068, -0.052, -37.768, 5.32, 10.532, -1.78, 0.504, 0.312, 0.0]
---
header: 
  seq: 18652833
  stamp: 
    secs: 1509323783
    nsecs: 141355136
  frame_id: ''
name: ['head_pan', 'right_j0', 'right_j1', 'right_j2', 'right_j3', 'right_j4', 'right_j5', 'right_j6', 'torso_t0']
position: [-0.2940517578125, -0.1606748046875, -0.3100185546875, 3.0422578125, -1.0677685546875, 0.0213720703125, -0.785130859375, -4.7141357421875, 0.0]
velocity: [-0.001, -0.001, -0.001, -0.001, -0.001, -0.001, -0.001, -0.001, 0.0]
effort: [0.008, -0.156, -37.768, 5.344, 10.464, -1.78, 0.512, 0.296, 0.0]
---
header: 
  seq: 18652834
  stamp: 
    secs: 1509323783
    nsecs: 151358394
  frame_id: ''
name: ['head_pan', 'right_j0', 'right_j1', 'right_j2', 'right_j3', 'right_j4', 'right_j5', 'right_j6', 'torso_t0']
position: [-0.2940517578125, -0.1606748046875, -0.3100185546875, 3.0422578125, -1.0677685546875, 0.0213720703125, -0.785130859375, -4.7141357421875, 0.0]
velocity: [-0.001, -0.001, -0.001, -0.001, -0.001, -0.001, -0.001, -0.001, 0.0]
effort: [0.02, -0.156, -37.82, 5.276, 10.464, -1.8, 0.512, 0.304, 0.0]
---
header: 
  seq: 18652835
  stamp: 
    secs: 1509323783
    nsecs: 161416059
  frame_id: ''
name: ['head_pan', 'right_j0', 'right_j1', 'right_j2', 'right_j3', 'right_j4', 'right_j5', 'right_j6', 'torso_t0']
position: [-0.2940517578125, -0.1606748046875, -0.3100185546875, 3.0422578125, -1.0677685546875, 0.0213720703125, -0.785130859375, -4.7141357421875, 0.0]
velocity: [-0.001, -0.001, -0.001, -0.001, -0.001, -0.001, -0.001, -0.001, 0.0]
effort: [0.02, -0.104, -37.768, 5.188, 10.508, -1.796, 0.512, 0.316, 0.0]
---
header: 
  seq: 18652836
  stamp: 
    secs: 1509323783
    nsecs: 171386765
  frame_id: ''
name: ['head_pan', 'right_j0', 'right_j1', 'right_j2', 'right_j3', 'right_j4', 'right_j5', 'right_j6', 'torso_t0']
position: [-0.2940517578125, -0.1606748046875, -0.3100185546875, 3.0422578125, -1.0677685546875, 0.0213720703125, -0.785130859375, -4.7141357421875, 0.0]
velocity: [-0.001, -0.001, -0.001, -0.001, -0.001, -0.001, -0.001, -0.001, 0.0]
effort: [0.052, -0.104, -37.768, 5.188, 10.392, -1.78, 0.472, 0.272, 0.0]
---
header: 
  seq: 18652837
  stamp: 
    secs: 1509323783
    nsecs: 181360301
  frame_id: ''
name: ['head_pan', 'right_j0', 'right_j1', 'right_j2', 'right_j3', 'right_j4', 'right_j5', 'right_j6', 'torso_t0']
position: [-0.2940517578125, -0.1606748046875, -0.3100185546875, 3.0422578125, -1.0677685546875, 0.0213720703125, -0.785130859375, -4.7141357421875, 0.0]
velocity: [-0.001, -0.001, -0.001, -0.001, -0.001, -0.001, -0.001, -0.001, 0.0]
effort: [0.0, -0.104, -37.768, 5.232, 10.484, -1.78, 0.492, 0.304, 0.0]
---
header: 
  seq: 18652838
  stamp: 
    secs: 1509323783
    nsecs: 191359916
  frame_id: ''
name: ['head_pan', 'right_j0', 'right_j1', 'right_j2', 'right_j3', 'right_j4', 'right_j5', 'right_j6', 'torso_t0']
position: [-0.2940517578125, -0.1606748046875, -0.3100185546875, 3.0422578125, -1.0677685546875, 0.0213720703125, -0.785130859375, -4.7141357421875, 0.0]
velocity: [-0.001, -0.001, -0.001, -0.001, -0.001, -0.001, -0.001, -0.001, 0.0]
effort: [0.02, -0.104, -37.82, 5.276, 10.532, -1.776, 0.492, 0.304, 0.0]
---
header: 
  seq: 18652839
  stamp: 
    secs: 1509323783
    nsecs: 201354859
  frame_id: ''
name: ['head_pan', 'right_j0', 'right_j1', 'right_j2', 'right_j3', 'right_j4', 'right_j5', 'right_j6', 'torso_t0']
position: [-0.2940517578125, -0.1606748046875, -0.3100185546875, 3.0422578125, -1.0677685546875, 0.0213720703125, -0.785130859375, -4.7141357421875, 0.0]
velocity: [-0.001, -0.001, -0.001, -0.001, -0.001, -0.001, -0.001, -0.001, 0.0]
effort: [0.008, -0.104, -37.768, 5.256, 10.44, -1.808, 0.504, 0.304, 0.0]
---
header: 
  seq: 18652840
  stamp: 
    secs: 1509323783
    nsecs: 211378110
  frame_id: ''
name: ['head_pan', 'right_j0', 'right_j1', 'right_j2', 'right_j3', 'right_j4', 'right_j5', 'right_j6', 'torso_t0']
position: [-0.2940517578125, -0.1606748046875, -0.3100185546875, 3.0422578125, -1.0677685546875, 0.0213720703125, -0.785130859375, -4.7141357421875, 0.0]
velocity: [-0.001, -0.001, -0.001, -0.001, -0.001, -0.001, -0.001, -0.001, 0.0]
effort: [0.008, -0.156, -37.82, 5.364, 10.484, -1.78, 0.512, 0.296, 0.0]
---
header: 
  seq: 18652841
  stamp: 
    secs: 1509323783
    nsecs: 221338872
  frame_id: ''
name: ['head_pan', 'right_j0', 'right_j1', 'right_j2', 'right_j3', 'right_j4', 'right_j5', 'right_j6', 'torso_t0']
position: [-0.2940517578125, -0.1606748046875, -0.3100185546875, 3.0422578125, -1.0677685546875, 0.0213720703125, -0.785130859375, -4.7141357421875, 0.0]
velocity: [-0.001, -0.001, -0.001, -0.001, -0.001, -0.001, -0.001, -0.001, 0.0]
effort: [-0.056, -0.156, -37.82, 5.32, 10.508, -1.796, 0.492, 0.272, 0.0]
---
header: 
  seq: 18652842
  stamp: 
    secs: 1509323783
    nsecs: 231342333
  frame_id: ''
name: ['head_pan', 'right_j0', 'right_j1', 'right_j2', 'right_j3', 'right_j4', 'right_j5', 'right_j6', 'torso_t0']
position: [-0.2940517578125, -0.1606748046875, -0.3100185546875, 3.0422578125, -1.0677685546875, 0.0213720703125, -0.785130859375, -4.7141357421875, 0.0]
velocity: [-0.001, -0.001, -0.001, -0.001, -0.001, -0.001, -0.001, -0.001, 0.0]
effort: [0.02, -0.156, -37.82, 5.232, 10.484, -1.8, 0.472, 0.324, 0.0]
---
header: 
  seq: 18652843
  stamp: 
    secs: 1509323783
    nsecs: 241391927
  frame_id: ''
name: ['head_pan', 'right_j0', 'right_j1', 'right_j2', 'right_j3', 'right_j4', 'right_j5', 'right_j6', 'torso_t0']
position: [-0.2940517578125, -0.1606748046875, -0.3100185546875, 3.0422578125, -1.0677685546875, 0.0213720703125, -0.785130859375, -4.7141357421875, 0.0]
velocity: [-0.001, -0.001, -0.001, -0.001, -0.001, -0.001, -0.001, -0.001, 0.0]
effort: [0.0, -0.104, -37.768, 5.32, 10.348, -1.796, 0.492, 0.304, 0.0]
---
header: 
  seq: 18652844
  stamp: 
    secs: 1509323783
    nsecs: 251360502
  frame_id: ''
name: ['head_pan', 'right_j0', 'right_j1', 'right_j2', 'right_j3', 'right_j4', 'right_j5', 'right_j6', 'torso_t0']
position: [-0.2940517578125, -0.1606748046875, -0.3100185546875, 3.0422578125, -1.0677685546875, 0.0213720703125, -0.785130859375, -4.7141357421875, 0.0]
velocity: [-0.001, -0.001, -0.001, -0.001, -0.001, -0.001, -0.001, -0.001, 0.0]
effort: [0.008, -0.104, -37.768, 5.256, 10.508, -1.788, 0.504, 0.316, 0.0]
---
header: 
  seq: 18652845
  stamp: 
    secs: 1509323783
    nsecs: 261382774
  frame_id: ''
name: ['head_pan', 'right_j0', 'right_j1', 'right_j2', 'right_j3', 'right_j4', 'right_j5', 'right_j6', 'torso_t0']
position: [-0.2940517578125, -0.1606748046875, -0.3100185546875, 3.0422578125, -1.0677685546875, 0.0213720703125, -0.785130859375, -4.7141357421875, 0.0]
velocity: [-0.001, -0.001, -0.001, -0.001, -0.001, -0.001, -0.001, -0.001, 0.0]
effort: [0.04, -0.156, -37.768, 5.344, 10.44, -1.78, 0.504, 0.292, 0.0]
---
header: 
  seq: 18652846
  stamp: 
    secs: 1509323783
    nsecs: 271378325
  frame_id: ''
name: ['head_pan', 'right_j0', 'right_j1', 'right_j2', 'right_j3', 'right_j4', 'right_j5', 'right_j6', 'torso_t0']
position: [-0.2940517578125, -0.1606748046875, -0.3100185546875, 3.0422578125, -1.0677685546875, 0.0213720703125, -0.785130859375, -4.7141357421875, 0.0]
velocity: [-0.001, -0.001, -0.001, -0.001, -0.001, -0.001, -0.001, -0.001, 0.0]
effort: [0.02, -0.156, -37.768, 5.188, 10.416, -1.78, 0.512, 0.276, 0.0]
---
header: 
  seq: 18652847
  stamp: 
    secs: 1509323783
    nsecs: 281367450
  frame_id: ''
name: ['head_pan', 'right_j0', 'right_j1', 'right_j2', 'right_j3', 'right_j4', 'right_j5', 'right_j6', 'torso_t0']
position: [-0.2940517578125, -0.1606748046875, -0.3100185546875, 3.0422578125, -1.0677685546875, 0.0213720703125, -0.785130859375, -4.7141357421875, 0.0]
velocity: [-0.001, -0.001, -0.001, -0.001, -0.001, -0.001, -0.001, -0.001, 0.0]
effort: [0.008, -0.156, -37.768, 5.364, 10.44, -1.788, 0.492, 0.284, 0.0]
---
header: 
  seq: 18652848
  stamp: 
    secs: 1509323783
    nsecs: 291406889
  frame_id: ''
name: ['head_pan', 'right_j0', 'right_j1', 'right_j2', 'right_j3', 'right_j4', 'right_j5', 'right_j6', 'torso_t0']
position: [-0.2940517578125, -0.1606748046875, -0.3100185546875, 3.0422578125, -1.0677685546875, 0.0213720703125, -0.785130859375, -4.7141357421875, 0.0]
velocity: [-0.001, -0.001, -0.001, -0.001, -0.001, -0.001, -0.001, -0.001, 0.0]
effort: [0.02, -0.156, -37.82, 5.3, 10.484, -1.808, 0.492, 0.276, 0.0]
---
header: 
  seq: 18652849
  stamp: 
    secs: 1509323783
    nsecs: 301343185
  frame_id: ''
name: ['head_pan', 'right_j0', 'right_j1', 'right_j2', 'right_j3', 'right_j4', 'right_j5', 'right_j6', 'torso_t0']
position: [-0.2940517578125, -0.1606748046875, -0.3100185546875, 3.0422578125, -1.0677685546875, 0.0213720703125, -0.785130859375, -4.7141357421875, 0.0]
velocity: [-0.001, -0.001, -0.001, -0.001, -0.001, -0.001, -0.001, -0.001, 0.0]
effort: [0.0, -0.104, -37.768, 5.276, 10.44, -1.78, 0.5, 0.284, 0.0]
---
header: 
  seq: 18652850
  stamp: 
    secs: 1509323783
    nsecs: 311373574
  frame_id: ''
name: ['head_pan', 'right_j0', 'right_j1', 'right_j2', 'right_j3', 'right_j4', 'right_j5', 'right_j6', 'torso_t0']
position: [-0.2940517578125, -0.1606748046875, -0.3100185546875, 3.0422578125, -1.0677685546875, 0.0213720703125, -0.785130859375, -4.7141357421875, 0.0]
velocity: [-0.001, -0.001, -0.001, -0.001, -0.001, -0.001, -0.001, -0.001, 0.0]
effort: [0.0, -0.156, -37.82, 5.256, 10.348, -1.816, 0.504, 0.296, 0.0]
---
header: 
  seq: 18652851
  stamp: 
    secs: 1509323783
    nsecs: 321336970
  frame_id: ''
name: ['head_pan', 'right_j0', 'right_j1', 'right_j2', 'right_j3', 'right_j4', 'right_j5', 'right_j6', 'torso_t0']
position: [-0.2940517578125, -0.1606748046875, -0.3100185546875, 3.0422578125, -1.0677685546875, 0.0213720703125, -0.785130859375, -4.7141357421875, 0.0]
velocity: [-0.001, -0.001, -0.001, -0.001, -0.001, -0.001, -0.001, -0.001, 0.0]
effort: [0.0, -0.104, -37.768, 5.124, 10.464, -1.768, 0.488, 0.316, 0.0]
---
header: 
  seq: 18652852
  stamp: 
    secs: 1509323783
    nsecs: 331365878
  frame_id: ''
name: ['head_pan', 'right_j0', 'right_j1', 'right_j2', 'right_j3', 'right_j4', 'right_j5', 'right_j6', 'torso_t0']
position: [-0.2940517578125, -0.1606748046875, -0.3100185546875, 3.0422578125, -1.0677685546875, 0.0213720703125, -0.785130859375, -4.7141357421875, 0.0]
velocity: [-0.001, -0.001, -0.001, -0.001, -0.001, -0.001, -0.001, -0.001, 0.0]
effort: [0.04, -0.156, -37.768, 5.188, 10.464, -1.796, 0.512, 0.296, 0.0]
---
header: 
  seq: 18652853
  stamp: 
    secs: 1509323783
    nsecs: 341402516
  frame_id: ''
name: ['head_pan', 'right_j0', 'right_j1', 'right_j2', 'right_j3', 'right_j4', 'right_j5', 'right_j6', 'torso_t0']
position: [-0.2940517578125, -0.1606748046875, -0.3100185546875, 3.0422578125, -1.0677685546875, 0.0213720703125, -0.785130859375, -4.7141357421875, 0.0]
velocity: [-0.001, -0.001, -0.001, -0.001, -0.001, -0.001, -0.001, -0.001, 0.0]
effort: [0.02, -0.104, -37.768, 5.256, 10.416, -1.788, 0.504, 0.284, 0.0]
---
header: 
  seq: 18652854
  stamp: 
    secs: 1509323783
    nsecs: 351361316
  frame_id: ''
name: ['head_pan', 'right_j0', 'right_j1', 'right_j2', 'right_j3', 'right_j4', 'right_j5', 'right_j6', 'torso_t0']
position: [-0.2940517578125, -0.1606748046875, -0.3100185546875, 3.0422578125, -1.0677685546875, 0.0213720703125, -0.785130859375, -4.7141357421875, 0.0]
velocity: [-0.001, -0.001, -0.001, -0.001, -0.001, -0.001, -0.001, -0.001, 0.0]
effort: [0.04, -0.156, -37.768, 5.344, 10.464, -1.796, 0.488, 0.296, 0.0]
---
header: 
  seq: 18652855
  stamp: 
    secs: 1509323783
    nsecs: 361363110
  frame_id: ''
name: ['head_pan', 'right_j0', 'right_j1', 'right_j2', 'right_j3', 'right_j4', 'right_j5', 'right_j6', 'torso_t0']
position: [-0.2940517578125, -0.1606748046875, -0.3100185546875, 3.0422578125, -1.0677685546875, 0.0213720703125, -0.785130859375, -4.7141357421875, 0.0]
velocity: [-0.001, -0.001, -0.001, -0.001, -0.001, -0.001, -0.001, -0.001, 0.0]
effort: [0.032, -0.104, -37.768, 5.144, 10.348, -1.776, 0.488, 0.284, 0.0]
---
header: 
  seq: 18652856
  stamp: 
    secs: 1509323783
    nsecs: 371381792
  frame_id: ''
name: ['head_pan', 'right_j0', 'right_j1', 'right_j2', 'right_j3', 'right_j4', 'right_j5', 'right_j6', 'torso_t0']
position: [-0.2940517578125, -0.1606748046875, -0.3100185546875, 3.0422578125, -1.0677685546875, 0.0213720703125, -0.785130859375, -4.7141357421875, 0.0]
velocity: [-0.001, -0.001, -0.001, -0.001, -0.001, -0.001, -0.001, -0.001, 0.0]
effort: [0.008, -0.104, -37.768, 5.188, 10.464, -1.788, 0.52, 0.316, 0.0]
---
header: 
  seq: 18652857
  stamp: 
    secs: 1509323783
    nsecs: 381332602
  frame_id: ''
name: ['head_pan', 'right_j0', 'right_j1', 'right_j2', 'right_j3', 'right_j4', 'right_j5', 'right_j6', 'torso_t0']
position: [-0.2940517578125, -0.1606748046875, -0.3100185546875, 3.0422578125, -1.0677685546875, 0.0213720703125, -0.785130859375, -4.7141357421875, 0.0]
velocity: [-0.001, -0.001, -0.001, -0.001, -0.001, -0.001, -0.001, -0.001, 0.0]
effort: [0.008, -0.104, -37.82, 5.232, 10.348, -1.808, 0.512, 0.304, 0.0]
---
header: 
  seq: 18652858
  stamp: 
    secs: 1509323783
    nsecs: 391344310
  frame_id: ''
name: ['head_pan', 'right_j0', 'right_j1', 'right_j2', 'right_j3', 'right_j4', 'right_j5', 'right_j6', 'torso_t0']
position: [-0.2940517578125, -0.1606748046875, -0.3100185546875, 3.0422578125, -1.0677685546875, 0.0213720703125, -0.785130859375, -4.7141357421875, 0.0]
velocity: [-0.001, -0.001, -0.001, -0.001, -0.001, -0.001, -0.001, -0.001, 0.0]
effort: [-0.044, -0.104, -37.82, 5.3, 10.416, -1.8, 0.52, 0.292, 0.0]
---
header: 
  seq: 18652859
  stamp: 
    secs: 1509323783
    nsecs: 401378812
  frame_id: ''
name: ['head_pan', 'right_j0', 'right_j1', 'right_j2', 'right_j3', 'right_j4', 'right_j5', 'right_j6', 'torso_t0']
position: [-0.2940517578125, -0.1606748046875, -0.3100185546875, 3.0422578125, -1.0677685546875, 0.0213720703125, -0.785130859375, -4.7141357421875, 0.0]
velocity: [-0.001, -0.001, -0.001, -0.001, -0.001, -0.001, -0.001, -0.001, 0.0]
effort: [0.0, -0.104, -37.768, 5.232, 10.44, -1.796, 0.5, 0.296, 0.0]
---
header: 
  seq: 18652860
  stamp: 
    secs: 1509323783
    nsecs: 411374615
  frame_id: ''
name: ['head_pan', 'right_j0', 'right_j1', 'right_j2', 'right_j3', 'right_j4', 'right_j5', 'right_j6', 'torso_t0']
position: [-0.2940517578125, -0.1606748046875, -0.3100185546875, 3.0422578125, -1.0677685546875, 0.0213720703125, -0.785130859375, -4.7141357421875, 0.0]
velocity: [-0.001, -0.001, -0.001, -0.001, -0.001, -0.001, -0.001, -0.001, 0.0]
effort: [0.02, -0.104, -37.768, 5.232, 10.392, -1.776, 0.524, 0.312, 0.0]
---
header: 
  seq: 18652861
  stamp: 
    secs: 1509323783
    nsecs: 421347637
  frame_id: ''
name: ['head_pan', 'right_j0', 'right_j1', 'right_j2', 'right_j3', 'right_j4', 'right_j5', 'right_j6', 'torso_t0']
position: [-0.2940517578125, -0.1606748046875, -0.3100185546875, 3.0422578125, -1.0677685546875, 0.0213720703125, -0.785130859375, -4.7141357421875, 0.0]
velocity: [-0.001, -0.001, -0.001, -0.001, -0.001, -0.001, -0.001, -0.001, 0.0]
effort: [0.04, -0.156, -37.768, 5.232, 10.464, -1.788, 0.512, 0.292, 0.0]
---
header: 
  seq: 18652862
  stamp: 
    secs: 1509323783
    nsecs: 431333393
  frame_id: ''
name: ['head_pan', 'right_j0', 'right_j1', 'right_j2', 'right_j3', 'right_j4', 'right_j5', 'right_j6', 'torso_t0']
position: [-0.2940517578125, -0.1606748046875, -0.3100185546875, 3.0422578125, -1.0677685546875, 0.0213720703125, -0.785130859375, -4.7141357421875, 0.0]
velocity: [-0.001, -0.001, -0.001, -0.001, -0.001, -0.001, -0.001, -0.001, 0.0]
effort: [0.0, -0.156, -37.82, 5.188, 10.348, -1.776, 0.52, 0.292, 0.0]
---
header: 
  seq: 18652863
  stamp: 
    secs: 1509323783
    nsecs: 441333759
  frame_id: ''
name: ['head_pan', 'right_j0', 'right_j1', 'right_j2', 'right_j3', 'right_j4', 'right_j5', 'right_j6', 'torso_t0']
position: [-0.2940517578125, -0.1606748046875, -0.3100185546875, 3.0422578125, -1.0677685546875, 0.0213720703125, -0.785130859375, -4.7141357421875, 0.0]
velocity: [-0.001, -0.001, -0.001, -0.001, -0.001, -0.001, -0.001, -0.001, 0.0]
effort: [0.052, -0.156, -37.768, 5.276, 10.324, -1.796, 0.52, 0.296, 0.0]
---
header: 
  seq: 18652864
  stamp: 
    secs: 1509323783
    nsecs: 451372141
  frame_id: ''
name: ['head_pan', 'right_j0', 'right_j1', 'right_j2', 'right_j3', 'right_j4', 'right_j5', 'right_j6', 'torso_t0']
position: [-0.2940517578125, -0.1606748046875, -0.3100185546875, 3.0422578125, -1.0677685546875, 0.0213720703125, -0.785130859375, -4.7141357421875, 0.0]
velocity: [-0.001, -0.001, -0.001, -0.001, -0.001, -0.001, -0.001, -0.001, 0.0]
effort: [0.052, -0.104, -37.768, 5.276, 10.44, -1.78, 0.504, 0.312, 0.0]
---
header: 
  seq: 18652865
  stamp: 
    secs: 1509323783
    nsecs: 461372552
  frame_id: ''
name: ['head_pan', 'right_j0', 'right_j1', 'right_j2', 'right_j3', 'right_j4', 'right_j5', 'right_j6', 'torso_t0']
position: [-0.2940517578125, -0.1606748046875, -0.3100185546875, 3.0422578125, -1.0677685546875, 0.0213720703125, -0.785130859375, -4.7141357421875, 0.0]
velocity: [-0.001, -0.001, -0.001, -0.001, -0.001, -0.001, -0.001, -0.001, 0.0]
effort: [0.0, -0.156, -37.768, 5.32, 10.508, -1.788, 0.492, 0.292, 0.0]
---
header: 
  seq: 18652866
  stamp: 
    secs: 1509323783
    nsecs: 471340631
  frame_id: ''
name: ['head_pan', 'right_j0', 'right_j1', 'right_j2', 'right_j3', 'right_j4', 'right_j5', 'right_j6', 'torso_t0']
position: [-0.2940517578125, -0.1606748046875, -0.3100185546875, 3.0422578125, -1.0677685546875, 0.0213720703125, -0.785130859375, -4.7141357421875, 0.0]
velocity: [-0.001, -0.001, -0.001, -0.001, -0.001, -0.001, -0.001, -0.001, 0.0]
effort: [0.02, -0.104, -37.82, 5.232, 10.532, -1.78, 0.512, 0.296, 0.0]
---
header: 
  seq: 18652867
  stamp: 
    secs: 1509323783
    nsecs: 481342969
  frame_id: ''
name: ['head_pan', 'right_j0', 'right_j1', 'right_j2', 'right_j3', 'right_j4', 'right_j5', 'right_j6', 'torso_t0']
position: [-0.2940517578125, -0.1606748046875, -0.3100185546875, 3.0422578125, -1.0677685546875, 0.0213720703125, -0.785130859375, -4.7141357421875, 0.0]
velocity: [-0.001, -0.001, -0.001, -0.001, -0.001, -0.001, -0.001, -0.001, 0.0]
effort: [0.0, -0.156, -37.82, 5.168, 10.532, -1.808, 0.504, 0.284, 0.0]
---
header: 
  seq: 18652868
  stamp: 
    secs: 1509323783
    nsecs: 491334548
  frame_id: ''
name: ['head_pan', 'right_j0', 'right_j1', 'right_j2', 'right_j3', 'right_j4', 'right_j5', 'right_j6', 'torso_t0']
position: [-0.2940517578125, -0.1606748046875, -0.3100185546875, 3.0422578125, -1.0677685546875, 0.0213720703125, -0.785130859375, -4.7141357421875, 0.0]
velocity: [-0.001, -0.001, -0.001, -0.001, -0.001, -0.001, -0.001, -0.001, 0.0]
effort: [-0.02, -0.156, -37.768, 5.188, 10.324, -1.808, 0.504, 0.296, 0.0]
---
header: 
  seq: 18652869
  stamp: 
    secs: 1509323783
    nsecs: 501361602
  frame_id: ''
name: ['head_pan', 'right_j0', 'right_j1', 'right_j2', 'right_j3', 'right_j4', 'right_j5', 'right_j6', 'torso_t0']
position: [-0.2940517578125, -0.1606748046875, -0.3100185546875, 3.0422578125, -1.0677685546875, 0.0213720703125, -0.785130859375, -4.7141357421875, 0.0]
velocity: [-0.001, -0.001, -0.001, -0.001, -0.001, -0.001, -0.001, -0.001, 0.0]
effort: [0.02, -0.104, -37.82, 5.256, 10.484, -1.796, 0.504, 0.292, 0.0]
---
header: 
  seq: 18652870
  stamp: 
    secs: 1509323783
    nsecs: 511391852
  frame_id: ''
name: ['head_pan', 'right_j0', 'right_j1', 'right_j2', 'right_j3', 'right_j4', 'right_j5', 'right_j6', 'torso_t0']
position: [-0.2940517578125, -0.1606748046875, -0.3100185546875, 3.0422578125, -1.0677685546875, 0.0213720703125, -0.785130859375, -4.7141357421875, 0.0]
velocity: [-0.001, -0.001, -0.001, -0.001, -0.001, -0.001, -0.001, -0.001, 0.0]
effort: [0.032, -0.156, -37.768, 5.276, 10.484, -1.808, 0.5, 0.304, 0.0]
---
header: 
  seq: 18652871
  stamp: 
    secs: 1509323783
    nsecs: 521378683
  frame_id: ''
name: ['head_pan', 'right_j0', 'right_j1', 'right_j2', 'right_j3', 'right_j4', 'right_j5', 'right_j6', 'torso_t0']
position: [-0.2940517578125, -0.1606748046875, -0.3100185546875, 3.0422578125, -1.0677685546875, 0.0213720703125, -0.785130859375, -4.7141357421875, 0.0]
velocity: [-0.001, -0.001, -0.001, -0.001, -0.001, -0.001, -0.001, -0.001, 0.0]
effort: [0.02, -0.104, -37.82, 5.276, 10.484, -1.788, 0.504, 0.324, 0.0]
---
header: 
  seq: 18652872
  stamp: 
    secs: 1509323783
    nsecs: 531365757
  frame_id: ''
name: ['head_pan', 'right_j0', 'right_j1', 'right_j2', 'right_j3', 'right_j4', 'right_j5', 'right_j6', 'torso_t0']
position: [-0.2940517578125, -0.1606748046875, -0.3100185546875, 3.0422578125, -1.0677685546875, 0.0213720703125, -0.785130859375, -4.7141357421875, 0.0]
velocity: [-0.001, -0.001, -0.001, -0.001, -0.001, -0.001, -0.001, -0.001, 0.0]
effort: [0.04, -0.104, -37.82, 5.344, 10.44, -1.776, 0.504, 0.304, 0.0]
---
header: 
  seq: 18652873
  stamp: 
    secs: 1509323783
    nsecs: 541340141
  frame_id: ''
name: ['head_pan', 'right_j0', 'right_j1', 'right_j2', 'right_j3', 'right_j4', 'right_j5', 'right_j6', 'torso_t0']
position: [-0.2940517578125, -0.1606748046875, -0.3100185546875, 3.0422578125, -1.0677685546875, 0.0213720703125, -0.785130859375, -4.7141357421875, 0.0]
velocity: [-0.001, -0.001, -0.001, -0.001, -0.001, -0.001, -0.001, -0.001, 0.0]
effort: [0.04, -0.156, -37.82, 5.256, 10.392, -1.78, 0.492, 0.292, 0.0]
---
header: 
  seq: 18652874
  stamp: 
    secs: 1509323783
    nsecs: 551359915
  frame_id: ''
name: ['head_pan', 'right_j0', 'right_j1', 'right_j2', 'right_j3', 'right_j4', 'right_j5', 'right_j6', 'torso_t0']
position: [-0.2940517578125, -0.1606748046875, -0.3100185546875, 3.0422578125, -1.0677685546875, 0.0213720703125, -0.785130859375, -4.7141357421875, 0.0]
velocity: [-0.001, -0.001, -0.001, -0.001, -0.001, -0.001, -0.001, -0.001, 0.0]
effort: [0.02, -0.156, -37.768, 5.3, 10.464, -1.796, 0.504, 0.304, 0.0]
---
header: 
  seq: 18652875
  stamp: 
    secs: 1509323783
    nsecs: 561364320
  frame_id: ''
name: ['head_pan', 'right_j0', 'right_j1', 'right_j2', 'right_j3', 'right_j4', 'right_j5', 'right_j6', 'torso_t0']
position: [-0.2940517578125, -0.1606748046875, -0.3100185546875, 3.0422578125, -1.0677685546875, 0.0213720703125, -0.785130859375, -4.7141357421875, 0.0]
velocity: [-0.001, -0.001, -0.001, -0.001, -0.001, -0.001, -0.001, -0.001, 0.0]
effort: [0.0, -0.156, -37.768, 5.232, 10.392, -1.796, 0.472, 0.296, 0.0]
---
header: 
  seq: 18652876
  stamp: 
    secs: 1509323783
    nsecs: 571366718
  frame_id: ''
name: ['head_pan', 'right_j0', 'right_j1', 'right_j2', 'right_j3', 'right_j4', 'right_j5', 'right_j6', 'torso_t0']
position: [-0.2940517578125, -0.1606748046875, -0.3100185546875, 3.0422578125, -1.0677685546875, 0.0213720703125, -0.785130859375, -4.7141357421875, 0.0]
velocity: [-0.001, -0.001, -0.001, -0.001, -0.001, -0.001, -0.001, -0.001, 0.0]
effort: [0.008, -0.104, -37.768, 5.388, 10.392, -1.78, 0.5, 0.276, 0.0]
---
header: 
  seq: 18652877
  stamp: 
    secs: 1509323783
    nsecs: 581346199
  frame_id: ''
name: ['head_pan', 'right_j0', 'right_j1', 'right_j2', 'right_j3', 'right_j4', 'right_j5', 'right_j6', 'torso_t0']
position: [-0.2940517578125, -0.1606748046875, -0.3100185546875, 3.0422578125, -1.0677685546875, 0.0213720703125, -0.785130859375, -4.7141357421875, 0.0]
velocity: [-0.001, -0.001, -0.001, -0.001, -0.001, -0.001, -0.001, -0.001, 0.0]
effort: [-0.012, -0.156, -37.768, 5.456, 10.348, -1.816, 0.488, 0.296, 0.0]
---
header: 
  seq: 18652878
  stamp: 
    secs: 1509323783
    nsecs: 591345172
  frame_id: ''
name: ['head_pan', 'right_j0', 'right_j1', 'right_j2', 'right_j3', 'right_j4', 'right_j5', 'right_j6', 'torso_t0']
position: [-0.2940517578125, -0.1606748046875, -0.3100185546875, 3.0422578125, -1.0677685546875, 0.0213720703125, -0.785130859375, -4.7141357421875, 0.0]
velocity: [-0.001, -0.001, -0.001, -0.001, -0.001, -0.001, -0.001, -0.001, 0.0]
effort: [-0.032, -0.156, -37.768, 5.32, 10.372, -1.736, 0.52, 0.296, 0.0]
---
header: 
  seq: 18652879
  stamp: 
    secs: 1509323783
    nsecs: 601332252
  frame_id: ''
name: ['head_pan', 'right_j0', 'right_j1', 'right_j2', 'right_j3', 'right_j4', 'right_j5', 'right_j6', 'torso_t0']
position: [-0.2940517578125, -0.1606748046875, -0.3100185546875, 3.0422578125, -1.0677685546875, 0.0213720703125, -0.785130859375, -4.7141357421875, 0.0]
velocity: [-0.001, -0.001, -0.001, -0.001, -0.001, -0.001, -0.001, -0.001, 0.0]
effort: [0.008, -0.156, -37.768, 5.168, 10.392, -1.796, 0.5, 0.292, 0.0]
---
header: 
  seq: 18652880
  stamp: 
    secs: 1509323783
    nsecs: 611353709
  frame_id: ''
name: ['head_pan', 'right_j0', 'right_j1', 'right_j2', 'right_j3', 'right_j4', 'right_j5', 'right_j6', 'torso_t0']
position: [-0.2940517578125, -0.1606748046875, -0.3100185546875, 3.0422578125, -1.0677685546875, 0.0213720703125, -0.785130859375, -4.7141357421875, 0.0]
velocity: [-0.001, -0.001, -0.001, -0.001, -0.001, -0.001, -0.001, -0.001, 0.0]
effort: [-0.012, -0.104, -37.82, 5.232, 10.508, -1.796, 0.512, 0.296, 0.0]
---
header: 
  seq: 18652881
  stamp: 
    secs: 1509323783
    nsecs: 621410089
  frame_id: ''
name: ['head_pan', 'right_j0', 'right_j1', 'right_j2', 'right_j3', 'right_j4', 'right_j5', 'right_j6', 'torso_t0']
position: [-0.2940517578125, -0.1606748046875, -0.3100185546875, 3.0422578125, -1.0677685546875, 0.0213720703125, -0.785130859375, -4.7141357421875, 0.0]
velocity: [-0.001, -0.001, -0.001, -0.001, -0.001, -0.001, -0.001, -0.001, 0.0]
effort: [0.032, -0.104, -37.82, 5.276, 10.348, -1.788, 0.488, 0.292, 0.0]
---
header: 
  seq: 18652882
  stamp: 
    secs: 1509323783
    nsecs: 631360573
  frame_id: ''
name: ['head_pan', 'right_j0', 'right_j1', 'right_j2', 'right_j3', 'right_j4', 'right_j5', 'right_j6', 'torso_t0']
position: [-0.2940517578125, -0.1606748046875, -0.3100185546875, 3.0422578125, -1.0677685546875, 0.0213720703125, -0.785130859375, -4.7141357421875, 0.0]
velocity: [-0.001, -0.001, -0.001, -0.001, -0.001, -0.001, -0.001, -0.001, 0.0]
effort: [0.064, -0.104, -37.82, 5.432, 10.372, -1.816, 0.488, 0.284, 0.0]
---
header: 
  seq: 18652883
  stamp: 
    secs: 1509323783
    nsecs: 641369745
  frame_id: ''
name: ['head_pan', 'right_j0', 'right_j1', 'right_j2', 'right_j3', 'right_j4', 'right_j5', 'right_j6', 'torso_t0']
position: [-0.2940517578125, -0.1606748046875, -0.3100185546875, 3.0422578125, -1.0677685546875, 0.0213720703125, -0.785130859375, -4.7141357421875, 0.0]
velocity: [-0.001, -0.001, -0.001, -0.001, -0.001, -0.001, -0.001, -0.001, 0.0]
effort: [0.008, -0.156, -37.82, 5.32, 10.484, -1.78, 0.5, 0.284, 0.0]
---
header: 
  seq: 18652884
  stamp: 
    secs: 1509323783
    nsecs: 651392566
  frame_id: ''
name: ['head_pan', 'right_j0', 'right_j1', 'right_j2', 'right_j3', 'right_j4', 'right_j5', 'right_j6', 'torso_t0']
position: [-0.2940517578125, -0.1606748046875, -0.3100185546875, 3.0422578125, -1.0677685546875, 0.0213720703125, -0.785130859375, -4.7141357421875, 0.0]
velocity: [-0.001, -0.001, -0.001, -0.001, -0.001, -0.001, -0.001, -0.001, 0.0]
effort: [0.008, -0.156, -37.82, 5.212, 10.44, -1.788, 0.492, 0.304, 0.0]
---
header: 
  seq: 18652885
  stamp: 
    secs: 1509323783
    nsecs: 661342407
  frame_id: ''
name: ['head_pan', 'right_j0', 'right_j1', 'right_j2', 'right_j3', 'right_j4', 'right_j5', 'right_j6', 'torso_t0']
position: [-0.2940517578125, -0.1606748046875, -0.3100185546875, 3.0422578125, -1.0677685546875, 0.0213720703125, -0.785130859375, -4.7141357421875, 0.0]
velocity: [-0.001, -0.001, -0.001, -0.001, -0.001, -0.001, -0.001, -0.001, 0.0]
effort: [0.0, -0.156, -37.768, 5.276, 10.324, -1.78, 0.492, 0.292, 0.0]
---
header: 
  seq: 18652886
  stamp: 
    secs: 1509323783
    nsecs: 671344753
  frame_id: ''
name: ['head_pan', 'right_j0', 'right_j1', 'right_j2', 'right_j3', 'right_j4', 'right_j5', 'right_j6', 'torso_t0']
position: [-0.2940517578125, -0.1606748046875, -0.3100185546875, 3.0422578125, -1.0677685546875, 0.0213720703125, -0.785130859375, -4.7141357421875, 0.0]
velocity: [-0.001, -0.001, -0.001, -0.001, -0.001, -0.001, -0.001, -0.001, 0.0]
effort: [-0.044, -0.104, -37.82, 5.232, 10.416, -1.768, 0.492, 0.296, 0.0]
---
header: 
  seq: 18652887
  stamp: 
    secs: 1509323783
    nsecs: 681366741
  frame_id: ''
name: ['head_pan', 'right_j0', 'right_j1', 'right_j2', 'right_j3', 'right_j4', 'right_j5', 'right_j6', 'torso_t0']
position: [-0.2940517578125, -0.1606748046875, -0.3100185546875, 3.0422578125, -1.0677685546875, 0.0213720703125, -0.785130859375, -4.7141357421875, 0.0]
velocity: [-0.001, -0.001, -0.001, -0.001, -0.001, -0.001, -0.001, -0.001, 0.0]
effort: [0.0, -0.104, -37.768, 5.32, 10.392, -1.796, 0.5, 0.292, 0.0]
---
header: 
  seq: 18652888
  stamp: 
    secs: 1509323783
    nsecs: 691377676
  frame_id: ''
name: ['head_pan', 'right_j0', 'right_j1', 'right_j2', 'right_j3', 'right_j4', 'right_j5', 'right_j6', 'torso_t0']
position: [-0.2940517578125, -0.1606748046875, -0.3100185546875, 3.0422578125, -1.0677685546875, 0.0213720703125, -0.785130859375, -4.7141357421875, 0.0]
velocity: [-0.001, -0.001, -0.001, -0.001, -0.001, -0.001, -0.001, -0.001, 0.0]
effort: [0.008, -0.104, -37.768, 5.212, 10.324, -1.768, 0.504, 0.284, 0.0]
---
header: 
  seq: 18652889
  stamp: 
    secs: 1509323783
    nsecs: 701397552
  frame_id: ''
name: ['head_pan', 'right_j0', 'right_j1', 'right_j2', 'right_j3', 'right_j4', 'right_j5', 'right_j6', 'torso_t0']
position: [-0.2940517578125, -0.1606748046875, -0.3100185546875, 3.0422578125, -1.0677685546875, 0.0213720703125, -0.785130859375, -4.7141357421875, 0.0]
velocity: [-0.001, -0.001, -0.001, -0.001, -0.001, -0.001, -0.001, -0.001, 0.0]
effort: [0.008, -0.104, -37.768, 5.344, 10.44, -1.8, 0.512, 0.292, 0.0]
---
header: 
  seq: 18652890
  stamp: 
    secs: 1509323783
    nsecs: 711355977
  frame_id: ''
name: ['head_pan', 'right_j0', 'right_j1', 'right_j2', 'right_j3', 'right_j4', 'right_j5', 'right_j6', 'torso_t0']
position: [-0.2940517578125, -0.1606748046875, -0.3100185546875, 3.0422578125, -1.0677685546875, 0.0213720703125, -0.785130859375, -4.7141357421875, 0.0]
velocity: [-0.001, -0.001, -0.001, -0.001, -0.001, -0.001, -0.001, -0.001, 0.0]
effort: [0.04, -0.156, -37.768, 5.276, 10.416, -1.748, 0.52, 0.312, 0.0]
---
header: 
  seq: 18652891
  stamp: 
    secs: 1509323783
    nsecs: 721357208
  frame_id: ''
name: ['head_pan', 'right_j0', 'right_j1', 'right_j2', 'right_j3', 'right_j4', 'right_j5', 'right_j6', 'torso_t0']
position: [-0.2940517578125, -0.1606748046875, -0.3100185546875, 3.0422578125, -1.0677685546875, 0.0213720703125, -0.785130859375, -4.7141357421875, 0.0]
velocity: [-0.001, -0.001, -0.001, -0.001, -0.001, -0.001, -0.001, -0.001, 0.0]
effort: [0.04, -0.104, -37.82, 5.232, 10.44, -1.78, 0.512, 0.292, 0.0]
---
header: 
  seq: 18652892
  stamp: 
    secs: 1509323783
    nsecs: 731355836
  frame_id: ''
name: ['head_pan', 'right_j0', 'right_j1', 'right_j2', 'right_j3', 'right_j4', 'right_j5', 'right_j6', 'torso_t0']
position: [-0.2940517578125, -0.1606748046875, -0.3100185546875, 3.0422578125, -1.0677685546875, 0.0213720703125, -0.785130859375, -4.7141357421875, 0.0]
velocity: [-0.001, -0.001, -0.001, -0.001, -0.001, -0.001, -0.001, -0.001, 0.0]
effort: [0.04, -0.104, -37.768, 5.3, 10.464, -1.8, 0.532, 0.296, 0.0]
---
header: 
  seq: 18652893
  stamp: 
    secs: 1509323783
    nsecs: 741370893
  frame_id: ''
name: ['head_pan', 'right_j0', 'right_j1', 'right_j2', 'right_j3', 'right_j4', 'right_j5', 'right_j6', 'torso_t0']
position: [-0.2940517578125, -0.1606748046875, -0.3100185546875, 3.0422578125, -1.0677685546875, 0.0213720703125, -0.785130859375, -4.7141357421875, 0.0]
velocity: [-0.001, -0.001, -0.001, -0.001, -0.001, -0.001, -0.001, -0.001, 0.0]
effort: [0.0, -0.104, -37.768, 5.276, 10.532, -1.8, 0.492, 0.296, 0.0]
---
header: 
  seq: 18652894
  stamp: 
    secs: 1509323783
    nsecs: 751382618
  frame_id: ''
name: ['head_pan', 'right_j0', 'right_j1', 'right_j2', 'right_j3', 'right_j4', 'right_j5', 'right_j6', 'torso_t0']
position: [-0.2940517578125, -0.1606748046875, -0.3100185546875, 3.0422578125, -1.0677685546875, 0.0213720703125, -0.785130859375, -4.7141357421875, 0.0]
velocity: [-0.001, -0.001, -0.001, -0.001, -0.001, -0.001, -0.001, -0.001, 0.0]
effort: [0.0, -0.104, -37.82, 5.388, 10.484, -1.796, 0.492, 0.304, 0.0]
---
header: 
  seq: 18652895
  stamp: 
    secs: 1509323783
    nsecs: 761353840
  frame_id: ''
name: ['head_pan', 'right_j0', 'right_j1', 'right_j2', 'right_j3', 'right_j4', 'right_j5', 'right_j6', 'torso_t0']
position: [-0.2940517578125, -0.1606748046875, -0.3100185546875, 3.0422578125, -1.0677685546875, 0.0213720703125, -0.785130859375, -4.7141357421875, 0.0]
velocity: [-0.001, -0.001, -0.001, -0.001, -0.001, -0.001, -0.001, -0.001, 0.0]
effort: [-0.012, -0.104, -37.768, 5.256, 10.508, -1.808, 0.52, 0.284, 0.0]
---
header: 
  seq: 18652896
  stamp: 
    secs: 1509323783
    nsecs: 771374082
  frame_id: ''
name: ['head_pan', 'right_j0', 'right_j1', 'right_j2', 'right_j3', 'right_j4', 'right_j5', 'right_j6', 'torso_t0']
position: [-0.2940517578125, -0.1606748046875, -0.3100185546875, 3.0422578125, -1.0677685546875, 0.0213720703125, -0.785130859375, -4.7141357421875, 0.0]
velocity: [-0.001, -0.001, -0.001, -0.001, -0.001, -0.001, -0.001, -0.001, 0.0]
effort: [-0.032, -0.104, -37.768, 5.232, 10.392, -1.788, 0.512, 0.304, 0.0]
---
header: 
  seq: 18652897
  stamp: 
    secs: 1509323783
    nsecs: 781392405
  frame_id: ''
name: ['head_pan', 'right_j0', 'right_j1', 'right_j2', 'right_j3', 'right_j4', 'right_j5', 'right_j6', 'torso_t0']
position: [-0.2940517578125, -0.1606748046875, -0.3100185546875, 3.0422578125, -1.0677685546875, 0.0213720703125, -0.785130859375, -4.7141357421875, 0.0]
velocity: [-0.001, -0.001, -0.001, -0.001, -0.001, -0.001, -0.001, -0.001, 0.0]
effort: [0.008, -0.104, -37.768, 5.32, 10.416, -1.796, 0.5, 0.296, 0.0]
---
header: 
  seq: 18652898
  stamp: 
    secs: 1509323783
    nsecs: 791400914
  frame_id: ''
name: ['head_pan', 'right_j0', 'right_j1', 'right_j2', 'right_j3', 'right_j4', 'right_j5', 'right_j6', 'torso_t0']
position: [-0.2940517578125, -0.1606748046875, -0.3100185546875, 3.0422578125, -1.0677685546875, 0.0213720703125, -0.785130859375, -4.7141357421875, 0.0]
velocity: [-0.001, -0.001, -0.001, -0.001, -0.001, -0.001, -0.001, -0.001, 0.0]
effort: [0.008, -0.104, -37.768, 5.276, 10.392, -1.788, 0.512, 0.292, 0.0]
---
header: 
  seq: 18652899
  stamp: 
    secs: 1509323783
    nsecs: 801383688
  frame_id: ''
name: ['head_pan', 'right_j0', 'right_j1', 'right_j2', 'right_j3', 'right_j4', 'right_j5', 'right_j6', 'torso_t0']
position: [-0.2940517578125, -0.1606748046875, -0.3100185546875, 3.0422578125, -1.0677685546875, 0.0213720703125, -0.785130859375, -4.7141357421875, 0.0]
velocity: [-0.001, -0.001, -0.001, -0.001, -0.001, -0.001, -0.001, -0.001, 0.0]
effort: [0.02, -0.104, -37.768, 5.256, 10.508, -1.796, 0.492, 0.296, 0.0]
---
header: 
  seq: 18652900
  stamp: 
    secs: 1509323783
    nsecs: 811369821
  frame_id: ''
name: ['head_pan', 'right_j0', 'right_j1', 'right_j2', 'right_j3', 'right_j4', 'right_j5', 'right_j6', 'torso_t0']
position: [-0.2940517578125, -0.1606748046875, -0.3100185546875, 3.0422578125, -1.0677685546875, 0.0213720703125, -0.785130859375, -4.7141357421875, 0.0]
velocity: [-0.001, -0.001, -0.001, -0.001, -0.001, -0.001, -0.001, -0.001, 0.0]
effort: [0.064, -0.156, -37.768, 5.32, 10.348, -1.808, 0.5, 0.264, 0.0]
---
header: 
  seq: 18652901
  stamp: 
    secs: 1509323783
    nsecs: 821372351
  frame_id: ''
name: ['head_pan', 'right_j0', 'right_j1', 'right_j2', 'right_j3', 'right_j4', 'right_j5', 'right_j6', 'torso_t0']
position: [-0.2940517578125, -0.1606748046875, -0.3100185546875, 3.0422578125, -1.0677685546875, 0.0213720703125, -0.785130859375, -4.7141357421875, 0.0]
velocity: [-0.001, -0.001, -0.001, -0.001, -0.001, -0.001, -0.001, -0.001, 0.0]
effort: [0.032, -0.104, -37.82, 5.144, 10.392, -1.788, 0.488, 0.292, 0.0]
---
header: 
  seq: 18652902
  stamp: 
    secs: 1509323783
    nsecs: 831389858
  frame_id: ''
name: ['head_pan', 'right_j0', 'right_j1', 'right_j2', 'right_j3', 'right_j4', 'right_j5', 'right_j6', 'torso_t0']
position: [-0.2940517578125, -0.1606748046875, -0.3100185546875, 3.0422578125, -1.0677685546875, 0.0213720703125, -0.785130859375, -4.7141357421875, 0.0]
velocity: [-0.001, -0.001, -0.001, -0.001, -0.001, -0.001, -0.001, -0.001, 0.0]
effort: [-0.012, -0.156, -37.768, 5.212, 10.464, -1.768, 0.504, 0.296, 0.0]
---
header: 
  seq: 18652903
  stamp: 
    secs: 1509323783
    nsecs: 841382088
  frame_id: ''
name: ['head_pan', 'right_j0', 'right_j1', 'right_j2', 'right_j3', 'right_j4', 'right_j5', 'right_j6', 'torso_t0']
position: [-0.2940517578125, -0.1606748046875, -0.3100185546875, 3.0422578125, -1.0677685546875, 0.0213720703125, -0.785130859375, -4.7141357421875, 0.0]
velocity: [-0.001, -0.001, -0.001, -0.001, -0.001, -0.001, -0.001, -0.001, 0.0]
effort: [-0.012, -0.156, -37.768, 5.276, 10.532, -1.788, 0.504, 0.292, 0.0]
---
header: 
  seq: 18652904
  stamp: 
    secs: 1509323783
    nsecs: 851381295
  frame_id: ''
name: ['head_pan', 'right_j0', 'right_j1', 'right_j2', 'right_j3', 'right_j4', 'right_j5', 'right_j6', 'torso_t0']
position: [-0.2940517578125, -0.1606748046875, -0.3100185546875, 3.0422578125, -1.0677685546875, 0.0213720703125, -0.785130859375, -4.7141357421875, 0.0]
velocity: [-0.001, -0.001, -0.001, -0.001, -0.001, -0.001, -0.001, -0.001, 0.0]
effort: [-0.044, -0.104, -37.82, 5.232, 10.348, -1.788, 0.492, 0.296, 0.0]
---
header: 
  seq: 18652905
  stamp: 
    secs: 1509323783
    nsecs: 861358688
  frame_id: ''
name: ['head_pan', 'right_j0', 'right_j1', 'right_j2', 'right_j3', 'right_j4', 'right_j5', 'right_j6', 'torso_t0']
position: [-0.2940517578125, -0.1606748046875, -0.3100185546875, 3.0422578125, -1.0677685546875, 0.0213720703125, -0.785130859375, -4.7141357421875, 0.0]
velocity: [-0.001, -0.001, -0.001, -0.001, -0.001, -0.001, -0.001, -0.001, 0.0]
effort: [-0.012, -0.156, -37.768, 5.232, 10.3, -1.796, 0.472, 0.316, 0.0]
---
header: 
  seq: 18652906
  stamp: 
    secs: 1509323783
    nsecs: 871383679
  frame_id: ''
name: ['head_pan', 'right_j0', 'right_j1', 'right_j2', 'right_j3', 'right_j4', 'right_j5', 'right_j6', 'torso_t0']
position: [-0.2940517578125, -0.1606748046875, -0.3100185546875, 3.0422578125, -1.0677685546875, 0.0213720703125, -0.785130859375, -4.7141357421875, 0.0]
velocity: [-0.001, -0.001, -0.001, -0.001, -0.001, -0.001, -0.001, -0.001, 0.0]
effort: [0.02, -0.156, -37.82, 5.276, 10.392, -1.8, 0.5, 0.304, 0.0]
---
header: 
  seq: 18652907
  stamp: 
    secs: 1509323783
    nsecs: 881375129
  frame_id: ''
name: ['head_pan', 'right_j0', 'right_j1', 'right_j2', 'right_j3', 'right_j4', 'right_j5', 'right_j6', 'torso_t0']
position: [-0.2940517578125, -0.1606748046875, -0.3100185546875, 3.0422578125, -1.0677685546875, 0.0213720703125, -0.785130859375, -4.7141357421875, 0.0]
velocity: [-0.001, -0.001, -0.001, -0.001, -0.001, -0.001, -0.001, -0.001, 0.0]
effort: [0.04, -0.104, -37.768, 5.3, 10.372, -1.796, 0.492, 0.296, 0.0]
---
header: 
  seq: 18652908
  stamp: 
    secs: 1509323783
    nsecs: 891362030
  frame_id: ''
name: ['head_pan', 'right_j0', 'right_j1', 'right_j2', 'right_j3', 'right_j4', 'right_j5', 'right_j6', 'torso_t0']
position: [-0.2940517578125, -0.1606748046875, -0.3100185546875, 3.0422578125, -1.0677685546875, 0.0213720703125, -0.785130859375, -4.7141357421875, 0.0]
velocity: [-0.001, -0.001, -0.001, -0.001, -0.001, -0.001, -0.001, -0.001, 0.0]
effort: [0.008, -0.104, -37.768, 5.168, 10.484, -1.788, 0.5, 0.312, 0.0]
---
header: 
  seq: 18652909
  stamp: 
    secs: 1509323783
    nsecs: 901409768
  frame_id: ''
name: ['head_pan', 'right_j0', 'right_j1', 'right_j2', 'right_j3', 'right_j4', 'right_j5', 'right_j6', 'torso_t0']
position: [-0.2940517578125, -0.1606748046875, -0.3100185546875, 3.0422578125, -1.0677685546875, 0.0213720703125, -0.785130859375, -4.7141357421875, 0.0]
velocity: [-0.001, -0.001, -0.001, -0.001, -0.001, -0.001, -0.001, -0.001, 0.0]
effort: [0.04, -0.104, -37.768, 5.388, 10.416, -1.816, 0.492, 0.292, 0.0]
---
header: 
  seq: 18652910
  stamp: 
    secs: 1509323783
    nsecs: 911377918
  frame_id: ''
name: ['head_pan', 'right_j0', 'right_j1', 'right_j2', 'right_j3', 'right_j4', 'right_j5', 'right_j6', 'torso_t0']
position: [-0.2940517578125, -0.1606748046875, -0.3100185546875, 3.0422578125, -1.0677685546875, 0.0213720703125, -0.785130859375, -4.7141357421875, 0.0]
velocity: [-0.001, -0.001, -0.001, -0.001, -0.001, -0.001, -0.001, -0.001, 0.0]
effort: [0.0, -0.104, -37.82, 5.276, 10.508, -1.776, 0.5, 0.284, 0.0]
---
header: 
  seq: 18652911
  stamp: 
    secs: 1509323783
    nsecs: 921415439
  frame_id: ''
name: ['head_pan', 'right_j0', 'right_j1', 'right_j2', 'right_j3', 'right_j4', 'right_j5', 'right_j6', 'torso_t0']
position: [-0.2940517578125, -0.1606748046875, -0.3100185546875, 3.0422578125, -1.0677685546875, 0.0213720703125, -0.785130859375, -4.7141357421875, 0.0]
velocity: [-0.001, -0.001, -0.001, -0.001, -0.001, -0.001, -0.001, -0.001, 0.0]
effort: [0.0, -0.104, -37.768, 5.256, 10.484, -1.78, 0.492, 0.312, 0.0]
---
header: 
  seq: 18652912
  stamp: 
    secs: 1509323783
    nsecs: 931401405
  frame_id: ''
name: ['head_pan', 'right_j0', 'right_j1', 'right_j2', 'right_j3', 'right_j4', 'right_j5', 'right_j6', 'torso_t0']
position: [-0.2940517578125, -0.1606748046875, -0.3100185546875, 3.0422578125, -1.0677685546875, 0.0213720703125, -0.785130859375, -4.7141357421875, 0.0]
velocity: [-0.001, -0.001, -0.001, -0.001, -0.001, -0.001, -0.001, -0.001, 0.0]
effort: [0.0, -0.104, -37.768, 5.188, 10.392, -1.796, 0.52, 0.292, 0.0]
---
header: 
  seq: 18652913
  stamp: 
    secs: 1509323783
    nsecs: 941362533
  frame_id: ''
name: ['head_pan', 'right_j0', 'right_j1', 'right_j2', 'right_j3', 'right_j4', 'right_j5', 'right_j6', 'torso_t0']
position: [-0.2940517578125, -0.1606748046875, -0.3100185546875, 3.0422578125, -1.0677685546875, 0.0213720703125, -0.785130859375, -4.7141357421875, 0.0]
velocity: [-0.001, -0.001, -0.001, -0.001, -0.001, -0.001, -0.001, -0.001, 0.0]
effort: [-0.02, -0.104, -37.768, 5.232, 10.508, -1.796, 0.512, 0.296, 0.0]
---
header: 
  seq: 18652914
  stamp: 
    secs: 1509323783
    nsecs: 951390727
  frame_id: ''
name: ['head_pan', 'right_j0', 'right_j1', 'right_j2', 'right_j3', 'right_j4', 'right_j5', 'right_j6', 'torso_t0']
position: [-0.2940517578125, -0.1606748046875, -0.3100185546875, 3.0422578125, -1.0677685546875, 0.0213720703125, -0.785130859375, -4.7141357421875, 0.0]
velocity: [-0.001, -0.001, -0.001, -0.001, -0.001, -0.001, -0.001, -0.001, 0.0]
effort: [-0.012, -0.104, -37.82, 5.212, 10.372, -1.8, 0.5, 0.292, 0.0]
---
header: 
  seq: 18652915
  stamp: 
    secs: 1509323783
    nsecs: 961354067
  frame_id: ''
name: ['head_pan', 'right_j0', 'right_j1', 'right_j2', 'right_j3', 'right_j4', 'right_j5', 'right_j6', 'torso_t0']
position: [-0.2940517578125, -0.1606748046875, -0.3100185546875, 3.0422578125, -1.0677685546875, 0.0213720703125, -0.785130859375, -4.7141357421875, 0.0]
velocity: [-0.001, -0.001, -0.001, -0.001, -0.001, -0.001, -0.001, -0.001, 0.0]
effort: [0.02, -0.156, -37.768, 5.364, 10.484, -1.8, 0.488, 0.296, 0.0]
---
header: 
  seq: 18652916
  stamp: 
    secs: 1509323783
    nsecs: 971387207
  frame_id: ''
name: ['head_pan', 'right_j0', 'right_j1', 'right_j2', 'right_j3', 'right_j4', 'right_j5', 'right_j6', 'torso_t0']
position: [-0.2940517578125, -0.1606748046875, -0.3100185546875, 3.0422578125, -1.0677685546875, 0.0213720703125, -0.785130859375, -4.7141357421875, 0.0]
velocity: [-0.001, -0.001, -0.001, -0.001, -0.001, -0.001, -0.001, -0.001, 0.0]
effort: [0.02, -0.156, -37.768, 5.32, 10.416, -1.78, 0.504, 0.304, 0.0]
---
header: 
  seq: 18652917
  stamp: 
    secs: 1509323783
    nsecs: 981384365
  frame_id: ''
name: ['head_pan', 'right_j0', 'right_j1', 'right_j2', 'right_j3', 'right_j4', 'right_j5', 'right_j6', 'torso_t0']
position: [-0.2940517578125, -0.1606748046875, -0.3100185546875, 3.0422578125, -1.0677685546875, 0.0213720703125, -0.785130859375, -4.7141357421875, 0.0]
velocity: [-0.001, -0.001, -0.001, -0.001, -0.001, -0.001, -0.001, -0.001, 0.0]
effort: [0.032, -0.156, -37.768, 5.32, 10.392, -1.764, 0.504, 0.304, 0.0]
---
header: 
  seq: 18652918
  stamp: 
    secs: 1509323783
    nsecs: 991384466
  frame_id: ''
name: ['head_pan', 'right_j0', 'right_j1', 'right_j2', 'right_j3', 'right_j4', 'right_j5', 'right_j6', 'torso_t0']
position: [-0.2940517578125, -0.1606748046875, -0.3100185546875, 3.0422578125, -1.0677685546875, 0.0213720703125, -0.785130859375, -4.7141357421875, 0.0]
velocity: [-0.001, -0.001, -0.001, -0.001, -0.001, -0.001, -0.001, -0.001, 0.0]
effort: [0.04, -0.104, -37.768, 5.168, 10.44, -1.788, 0.492, 0.292, 0.0]
---
header: 
  seq: 18652919
  stamp: 
    secs: 1509323784
    nsecs:   1386416
  frame_id: ''
name: ['head_pan', 'right_j0', 'right_j1', 'right_j2', 'right_j3', 'right_j4', 'right_j5', 'right_j6', 'torso_t0']
position: [-0.2940517578125, -0.1606748046875, -0.3100185546875, 3.0422578125, -1.0677685546875, 0.0213720703125, -0.785130859375, -4.7141357421875, 0.0]
velocity: [-0.001, -0.001, -0.001, -0.001, -0.001, -0.001, -0.001, -0.001, 0.0]
effort: [0.032, -0.156, -37.768, 5.276, 10.484, -1.78, 0.504, 0.312, 0.0]
---
header: 
  seq: 18652920
  stamp: 
    secs: 1509323784
    nsecs:  11404780
  frame_id: ''
name: ['head_pan', 'right_j0', 'right_j1', 'right_j2', 'right_j3', 'right_j4', 'right_j5', 'right_j6', 'torso_t0']
position: [-0.2940517578125, -0.1606748046875, -0.3100185546875, 3.0422578125, -1.0677685546875, 0.0213720703125, -0.785130859375, -4.7141357421875, 0.0]
velocity: [-0.001, -0.001, -0.001, -0.001, -0.001, -0.001, -0.001, -0.001, 0.0]
effort: [0.0, -0.104, -37.82, 5.144, 10.392, -1.788, 0.504, 0.296, 0.0]
---
header: 
  seq: 18652921
  stamp: 
    secs: 1509323784
    nsecs:  21386120
  frame_id: ''
name: ['head_pan', 'right_j0', 'right_j1', 'right_j2', 'right_j3', 'right_j4', 'right_j5', 'right_j6', 'torso_t0']
position: [-0.2940517578125, -0.1606748046875, -0.3100185546875, 3.0422578125, -1.0677685546875, 0.0213720703125, -0.785130859375, -4.7141357421875, 0.0]
velocity: [-0.001, -0.001, -0.001, -0.001, -0.001, -0.001, -0.001, -0.001, 0.0]
effort: [0.008, -0.104, -37.768, 5.212, 10.3, -1.816, 0.492, 0.292, 0.0]
---
header: 
  seq: 18652922
  stamp: 
    secs: 1509323784
    nsecs:  31408235
  frame_id: ''
name: ['head_pan', 'right_j0', 'right_j1', 'right_j2', 'right_j3', 'right_j4', 'right_j5', 'right_j6', 'torso_t0']
position: [-0.2940517578125, -0.1606748046875, -0.3100185546875, 3.0422578125, -1.0677685546875, 0.0213720703125, -0.785130859375, -4.7141357421875, 0.0]
